{
  "museums": [
    {
      "name": "Ставропольский государственный музей-заповедник им. Г.Н. Прозрителева и Г.К. Праве",
      "address": "г. Ставрополь, ул. Дзержинского, 135",
      "lat": 45.041111,
      "lng": 41.969722,
      "description": "Крупнейший музей на Кавказе, основан в 1905 году. Богатые коллекции палеонтологии, археологии, этнографии.",
      "contacts": "+7 (8652) 26-42-23",
      "website": "https://www.stavmuseum.ru/",
      "photo_url": "",
      "exhibits": []
    },
    {
      "name": "Пятигорский краеведческий музей",
      "address": "г. Пятигорск, ул. Братьев Бернардацци, 2",
      "lat": 44.03603,
      "lng": 43.07972,
      "description": "Одно из старейших музейных учреждений Северного Кавказа, основано в 1903 году. Более 130 тысяч предметов.",
      "contacts": "+7 (8652) 26-26-14",
      "website": "https://pkm1903.ru/",
      "photo_url": "",
      "exhibits": []
    },
    {
      "name": "Кисловодский историко-краеведческий музей «Крепость»",
      "address": "г. Кисловодск, пр. Мира, 11",
      "lat": 43.894642,
      "lng": 42.716844,
      "description": "Музей расположен в здании Кисловодской крепости — памятнике XIX века. Более 89 тысяч экспонатов.",
      "contacts": "+7 (87937) 678-81",
      "website": "https://muskrep.ru/",
      "photo_url": "",
      "exhibits": []
    },
    {
      "name": "Буденновский краеведческий музей",
      "address": "г. Будённовск, ул. Октябрьская, 43",
      "lat": 44.778946,
      "lng": 44.165421,
      "description": "Музей в здании казначейства 1911 года. Экспозиции: природа, археология, воинская слава, события 1995 года.",
      "contacts": "+7 (86559) 7-39-31",
      "website": "https://budmuzeum.stv.muzkult.ru/",
      "photo_url": "",
      "exhibits": []
    },
    {
      "name": "Благодарненский районный историко-краеведческий музей им. П.Ф. Грибцова",
      "address": "г. Благодарный, ул. Ленина, 235А",
      "lat": 45.100103,
      "lng": 43.440569,
      "description": "Музей имени Петра Фёдоровича Грибцова. Экспозиции о быте мещан, истории села, войне.",
      "contacts": "+7 (961) 462-26-58",
      "website": "https://blagmuzei.ucoz.ru/",
      "photo_url": "",
      "exhibits": []
    },
    {
      "name": "Новоселицкий историко-краеведческий музей им. М.С. Мамонтова",
      "address": "село Новоселицкое, площадь им. Ленина, 2А",
      "lat": 44.754261,
      "lng": 43.451275,
      "description": "Музей в селе Новоселицком. Экспозиции этнографии, зал Славы, более 2500 предметов.",
      "contacts": "+7 (865) 482-07-09",
      "website": "https://www.stavmuseum.ru/",
      "photo_url": "",
      "exhibits": []
    },
    {
      "name": "Гофицкий историко-краеведческий музей им. Ю.И. Бельгарова",
      "address": "село Гофицкое, ул. Советская, 71",
      "lat": 45.09,
      "lng": 42.95,
      "description": "Музей имени основателя Юрия Бельгарова. Реликвии 271-й стрелковой дивизии, живопись, техника.",
      "contacts": "+7 (8652) 26-42-23",
      "website": "https://gofmusey.ru/",
      "photo_url": "",
      "exhibits": []
    }
  ]
}
